{
"type": "FeatureCollection",
"name": "stations",
"crs": { "type": "name", "properties": { "name": "urn:ogc:def:crs:OGC:1.3:CRS84" } },
"features": [
{ "type": "Feature", "properties": { "station_id": "CSV_00", "name_uz": "Novza", "name_ru": "Novza", "line": "Chilonzor Line" }, "geometry": { "type": "Point", "coordinates": [ 69.2236165, 41.2918722 ] } },
{ "type": "Feature", "properties": { "station_id": "CSV_01", "name_uz": "Xalqlar doʻstligi", "name_ru": "Xalqlar doʻstligi", "line": "Chilonzor Line" }, "geometry": { "type": "Point", "coordinates": [ 69.2430959, 41.3118987 ] } },
{ "type": "Feature", "properties": { "station_id": "CSV_02", "name_uz": "Mirzo Ulugʻbek", "name_ru": "Mirzo Ulugʻbek", "line": "Chilonzor Line" }, "geometry": { "type": "Point", "coordinates": [ 69.2125834, 41.2820342 ] } },
{ "type": "Feature", "properties": { "station_id": "CSV_03", "name_uz": "Chilonzor", "name_ru": "Chilonzor", "line": "Chilonzor Line" }, "geometry": { "type": "Point", "coordinates": [ 69.2049735, 41.274359 ] } },
{ "type": "Feature", "properties": { "station_id": "CSV_04", "name_uz": "Milliy bogʻ", "name_ru": "Milliy bogʻ", "line": "Chilonzor Line" }, "geometry": { "type": "Point", "coordinates": [ 69.2356663, 41.3033944 ] } },
{ "type": "Feature", "properties": { "station_id": "CSV_05", "name_uz": "G'afur G'ulom", "name_ru": "G'afur G'ulom", "line": "O'zbekiston Line" }, "geometry": { "type": "Point", "coordinates": [ 69.2458342, 41.3278828 ] } },
{ "type": "Feature", "properties": { "station_id": "CSV_06", "name_uz": "Chorsu", "name_ru": "Chorsu", "line": "O'zbekiston Line" }, "geometry": { "type": "Point", "coordinates": [ 69.2368152, 41.3258649 ] } },
{ "type": "Feature", "properties": { "station_id": "CSV_07", "name_uz": "Oybek", "name_ru": "Oybek", "line": "O'zbekiston Line" }, "geometry": { "type": "Point", "coordinates": [ 69.2740501, 41.2980128 ] } },
{ "type": "Feature", "properties": { "station_id": "CSV_08", "name_uz": "Mingoʻrik", "name_ru": "Mingoʻrik", "line": "Yunusobod Line" }, "geometry": { "type": "Point", "coordinates": [ 69.2744102, 41.299661 ] } },
{ "type": "Feature", "properties": { "station_id": "CSV_09", "name_uz": "Toshkent", "name_ru": "Toshkent", "line": "O'zbekiston Line" }, "geometry": { "type": "Point", "coordinates": [ 69.2877212, 41.2932886 ] } },
{ "type": "Feature", "properties": { "station_id": "CSV_10", "name_uz": "Beruniy", "name_ru": "Beruniy", "line": "O'zbekiston Line" }, "geometry": { "type": "Point", "coordinates": [ 69.2062046, 41.3446152 ] } },
{ "type": "Feature", "properties": { "station_id": "CSV_11", "name_uz": "Shahriston", "name_ru": "Shahriston", "line": "Yunusobod Line" }, "geometry": { "type": "Point", "coordinates": [ 69.2881069, 41.3531185 ] } },
{ "type": "Feature", "properties": { "station_id": "CSV_12", "name_uz": "Mashinasozlar", "name_ru": "Mashinasozlar", "line": "O'zbekiston Line" }, "geometry": { "type": "Point", "coordinates": [ 69.3051276, 41.2989847 ] } },
{ "type": "Feature", "properties": { "station_id": "CSV_13", "name_uz": "Tinchlik", "name_ru": "Tinchlik", "line": "O'zbekiston Line" }, "geometry": { "type": "Point", "coordinates": [ 69.2191155, 41.3323014 ] } },
{ "type": "Feature", "properties": { "station_id": "CSV_14", "name_uz": "Abdulla Qodiriy", "name_ru": "Abdulla Qodiriy", "line": "Yunusobod Line" }, "geometry": { "type": "Point", "coordinates": [ 69.281759, 41.3201924 ] } },
{ "type": "Feature", "properties": { "station_id": "CSV_15", "name_uz": "Minor", "name_ru": "Minor", "line": "Yunusobod Line" }, "geometry": { "type": "Point", "coordinates": [ 69.2834163, 41.3268923 ] } },
{ "type": "Feature", "properties": { "station_id": "CSV_16", "name_uz": "Bodomzor", "name_ru": "Bodomzor", "line": "Yunusobod Line" }, "geometry": { "type": "Point", "coordinates": [ 69.2845697, 41.3371701 ] } },
{ "type": "Feature", "properties": { "station_id": "CSV_17", "name_uz": "Hamid Olimjon", "name_ru": "Hamid Olimjon", "line": "Chilonzor Line" }, "geometry": { "type": "Point", "coordinates": [ 69.2957419, 41.3181644 ] } },
{ "type": "Feature", "properties": { "station_id": "CSV_18", "name_uz": "Kosmonavtlar", "name_ru": "Kosmonavtlar", "line": "O'zbekiston Line" }, "geometry": { "type": "Point", "coordinates": [ 69.2647207, 41.3051618 ] } },
{ "type": "Feature", "properties": { "station_id": "CSV_19", "name_uz": "Buyuk Ipak Yoʻli", "name_ru": "Buyuk Ipak Yoʻli", "line": "Chilonzor Line" }, "geometry": { "type": "Point", "coordinates": [ 69.3285598, 41.3261054 ] } },
{ "type": "Feature", "properties": { "station_id": "CSV_20", "name_uz": "Pushkin", "name_ru": "Pushkin", "line": "Chilonzor Line" }, "geometry": { "type": "Point", "coordinates": [ 69.311102, 41.3219481 ] } },
{ "type": "Feature", "properties": { "station_id": "CSV_21", "name_uz": "Amir Temur xiyoboni", "name_ru": "Amir Temur xiyoboni", "line": "Chilonzor Line" }, "geometry": { "type": "Point", "coordinates": [ 69.2832691, 41.3126738 ] } },
{ "type": "Feature", "properties": { "station_id": "CSV_22", "name_uz": "Yunus Rajabiy", "name_ru": "Yunus Rajabiy", "line": "Yunusobod Line" }, "geometry": { "type": "Point", "coordinates": [ 69.2835077, 41.3138871 ] } },
{ "type": "Feature", "properties": { "station_id": "CSV_23", "name_uz": "Alisher Navoiy", "name_ru": "Alisher Navoiy", "line": "O'zbekiston Line" }, "geometry": { "type": "Point", "coordinates": [ 69.2542973, 41.3189218 ] } },
{ "type": "Feature", "properties": { "station_id": "CSV_24", "name_uz": "Paxtakor", "name_ru": "Paxtakor", "line": "Other" }, "geometry": { "type": "Point", "coordinates": [ 69.2550882, 41.3177914 ] } },
{ "type": "Feature", "properties": { "station_id": "CSV_25", "name_uz": "Oʻzbekiston", "name_ru": "Oʻzbekiston", "line": "O'zbekiston Line" }, "geometry": { "type": "Point", "coordinates": [ 69.2534057, 41.3119437 ] } },
{ "type": "Feature", "properties": { "station_id": "CSV_26", "name_uz": "Olmazor", "name_ru": "Olmazor", "line": "Chilonzor Line" }, "geometry": { "type": "Point", "coordinates": [ 69.1961045, 41.2566724 ] } },
{ "type": "Feature", "properties": { "station_id": "CSV_27", "name_uz": "Do'stlik", "name_ru": "Do'stlik", "line": "O'zbekiston Line" }, "geometry": { "type": "Point", "coordinates": [ 69.3222445, 41.2936401 ] } },
{ "type": "Feature", "properties": { "station_id": "CSV_28", "name_uz": "Mustaqillik maydoni", "name_ru": "Mustaqillik maydoni", "line": "Chilonzor Line" }, "geometry": { "type": "Point", "coordinates": [ 69.2710646, 41.3149453 ] } },
{ "type": "Feature", "properties": { "station_id": "CSV_29", "name_uz": "Yunusobod", "name_ru": "Yunusobod", "line": "Yunusobod Line" }, "geometry": { "type": "Point", "coordinates": [ 69.2923003, 41.3668411 ] } },
{ "type": "Feature", "properties": { "station_id": "CSV_30", "name_uz": "Turkiston", "name_ru": "Turkiston", "line": "Yunusobod Line" }, "geometry": { "type": "Point", "coordinates": [ 69.2960151, 41.3775217 ] } },
{ "type": "Feature", "properties": { "station_id": "CSV_31", "name_uz": "Olmos", "name_ru": "Olmos", "line": "Ring Line (Yellow)" }, "geometry": { "type": "Point", "coordinates": [ 69.3603338, 41.281705 ] } },
{ "type": "Feature", "properties": { "station_id": "CSV_32", "name_uz": "Texnopark", "name_ru": "Texnopark", "line": "Ring Line (Yellow)" }, "geometry": { "type": "Point", "coordinates": [ 69.3231867, 41.294628 ] } },
{ "type": "Feature", "properties": { "station_id": "CSV_33", "name_uz": "Yashnobod", "name_ru": "Yashnobod", "line": "Ring Line (Yellow)" }, "geometry": { "type": "Point", "coordinates": [ 69.3497831, 41.2975859 ] } },
{ "type": "Feature", "properties": { "station_id": "CSV_34", "name_uz": "Tuzel", "name_ru": "Tuzel", "line": "Ring Line (Yellow)" }, "geometry": { "type": "Point", "coordinates": [ 69.3561844, 41.2920125 ] } },
{ "type": "Feature", "properties": { "station_id": "CSV_35", "name_uz": "Rohat", "name_ru": "Rohat", "line": "Ring Line (Yellow)" }, "geometry": { "type": "Point", "coordinates": [ 69.3647517, 41.2652907 ] } },
{ "type": "Feature", "properties": { "station_id": "CSV_36", "name_uz": "Yangiobod", "name_ru": "Yangiobod", "line": "Ring Line (Yellow)" }, "geometry": { "type": "Point", "coordinates": [ 69.3587242, 41.2565075 ] } },
{ "type": "Feature", "properties": { "station_id": "CSV_37", "name_uz": "Qo‘yliq", "name_ru": "Qo‘yliq", "line": "Ring Line (Yellow)" }, "geometry": { "type": "Point", "coordinates": [ 69.3270001, 41.2374579 ] } },
{ "type": "Feature", "properties": { "station_id": "CSV_38", "name_uz": "Matonat", "name_ru": "Matonat", "line": "Ring Line (Yellow)" }, "geometry": { "type": "Point", "coordinates": [ 69.3083229, 41.2444713 ] } },
{ "type": "Feature", "properties": { "station_id": "CSV_39", "name_uz": "Qiyot", "name_ru": "Qiyot", "line": "Ring Line (Yellow)" }, "geometry": { "type": "Point", "coordinates": [ 69.299728, 41.2444796 ] } },
{ "type": "Feature", "properties": { "station_id": "CSV_40", "name_uz": "Choshtepa", "name_ru": "Choshtepa", "line": "Chilonzor Line" }, "geometry": { "type": "Point", "coordinates": [ 69.1960345, 41.2382496 ] } },
{ "type": "Feature", "properties": { "station_id": "CSV_41", "name_uz": "O‘zgarish", "name_ru": "O‘zgarish", "line": "Chilonzor Line" }, "geometry": { "type": "Point", "coordinates": [ 69.2039714, 41.2273364 ] } },
{ "type": "Feature", "properties": { "station_id": "CSV_42", "name_uz": "Yangihayot", "name_ru": "Yangihayot", "line": "Chilonzor Line" }, "geometry": { "type": "Point", "coordinates": [ 69.214015, 41.2135099 ] } },
{ "type": "Feature", "properties": { "station_id": "CSV_43", "name_uz": "Chinor", "name_ru": "Chinor", "line": "Chilonzor Line" }, "geometry": { "type": "Point", "coordinates": [ 69.2189575, 41.2066965 ] } },
{ "type": "Feature", "properties": { "station_id": "CSV_44", "name_uz": "Tolarik", "name_ru": "Tolarik", "line": "Ring Line (Yellow)" }, "geometry": { "type": "Point", "coordinates": [ 69.2849568, 41.2445139 ] } },
{ "type": "Feature", "properties": { "station_id": "CSV_45", "name_uz": "Xonobod", "name_ru": "Xonobod", "line": "Ring Line (Yellow)" }, "geometry": { "type": "Point", "coordinates": [ 69.2704353, 41.2300103 ] } },
{ "type": "Feature", "properties": { "station_id": "CSV_46", "name_uz": "Quruvchilar", "name_ru": "Quruvchilar", "line": "Ring Line (Yellow)" }, "geometry": { "type": "Point", "coordinates": [ 69.2605033, 41.2216367 ] } },
{ "type": "Feature", "properties": { "station_id": "CSV_47", "name_uz": "Qipchok", "name_ru": "Qipchok", "line": "Ring Line (Yellow)" }, "geometry": { "type": "Point", "coordinates": [ 69.2214112, 41.2054229 ] } },
{ "type": "Feature", "properties": { "station_id": "CSV_48", "name_uz": "Turon", "name_ru": "Turon", "line": "Ring Line (Yellow)" }, "geometry": { "type": "Point", "coordinates": [ 69.234154, 41.2106813 ] } }
]
}
